{
    "type": "FeatureCollection",
    "features": [
        {
            "type": "Feature",
            "geometry": {
                "type": "Point",
                "coordinates": [
                    0.132501,
                    52.166531
                ]
            },
            "properties": {
                "id": "345742af8c0730ba153791a13eeb9141b30c91d8",
                "name": "DNA Path Sculpture",
                "locality": "Great Shelford",
                "district": "South Cambridgeshire"
            }
        },
        {
            "type": "Feature",
            "geometry": {
                "type": "Point",
                "coordinates": [
                    0.107272,
                    52.16786
                ]
            },
            "properties": {
                "id": "c1c83e9b3e60fd6f14830401e17480dbbc531b09",
                "name": "Oak Information Sculpture",
                "locality": "Haslingfield",
                "district": "South Cambridgeshire"
            }
        },
        {
            "type": "Feature",
            "geometry": {
                "type": "Point",
                "coordinates": [
                    0.104121,
                    52.171699
                ]
            },
            "properties": {
                "id": "de2450ed0dcfbea90da00174792a706fe66d889b",
                "name": "Trumpington Meadows Trail Marker 1",
                "locality": "Trumpington",
                "district": "Cambridge"
            }
        },
        {
            "type": "Feature",
            "geometry": {
                "type": "Point",
                "coordinates": [
                    0.115321,
                    52.172806
                ]
            },
            "properties": {
                "id": "ee61ab0edcfc39c8d827633b3dc227c3a60a43df",
                "name": "Trumpington Pavillion",
                "locality": "Trumpington",
                "district": "Cambridge"
            }
        },
        {
            "type": "Feature",
            "geometry": {
                "type": "Point",
                "coordinates": [
                    0.102155,
                    52.172995
                ]
            },
            "properties": {
                "id": "f1800d620528dee0ed9695a7da00df27b1dbb483",
                "name": "Byron's Pool",
                "locality": "Trumpington",
                "district": "Cambridge"
            }
        },
        {
            "type": "Feature",
            "geometry": {
                "type": "Point",
                "coordinates": [
                    0.139554,
                    52.1735
                ]
            },
            "properties": {
                "id": "7feb915f4002fe39a1aa35cbb87202897894dfa8",
                "name": "Sculpture at Rosie Hospital",
                "locality": "Queen Edith's",
                "district": "Cambridge"
            }
        },
        {
            "type": "Feature",
            "geometry": {
                "type": "Point",
                "coordinates": [
                    0.10867,
                    52.17387
                ]
            },
            "properties": {
                "id": "75757ca13a5a12b2367452eafa84cd2f3e4c708a",
                "name": "Saint Mary and Saint Michaels",
                "locality": "Trumpington",
                "district": "Cambridge"
            }
        },
        {
            "type": "Feature",
            "geometry": {
                "type": "Point",
                "coordinates": [
                    0.139181,
                    52.174153
                ]
            },
            "properties": {
                "id": "76c4fb2d2c4ccb09a842f16e635aeb5a7d575fcd",
                "name": "Rose",
                "locality": "Queen Edith's",
                "district": "Cambridge"
            }
        },
        {
            "type": "Feature",
            "geometry": {
                "type": "Point",
                "coordinates": [
                    0.142176,
                    52.175461
                ]
            },
            "properties": {
                "name": "Addenbrookes",
                "locality": "Queen Edith's",
                "district": "Cambridge",
                "removed": true
            }
        },
        {
            "type": "Feature",
            "geometry": {
                "type": "Point",
                "coordinates": [
                    0.143757,
                    52.175954
                ]
            },
            "properties": {
                "name": "Addenbrookes Flag",
                "locality": "Queen Edith's",
                "district": "Cambridge",
                "removed": true
            }
        },
        {
            "type": "Feature",
            "geometry": {
                "type": "Point",
                "coordinates": [
                    0.138149,
                    52.176297
                ]
            },
            "properties": {
                "id": "6057b79285cc55cf2bc4b451bb893b2273dcbf8f",
                "name": "Anne Frank's Tree",
                "locality": "Queen Edith's",
                "district": "Cambridge"
            }
        },
        {
            "type": "Feature",
            "geometry": {
                "type": "Point",
                "coordinates": [
                    0.143373,
                    52.176479
                ]
            },
            "properties": {
                "id": "c7880211170272f4b780527168a8a4334c9024f9",
                "name": "Clifford Allbutt Building",
                "locality": "Queen Edith's",
                "district": "Cambridge"
            }
        },
        {
            "type": "Feature",
            "geometry": {
                "type": "Point",
                "coordinates": [
                    0.096893,
                    52.176549
                ]
            },
            "properties": {
                "id": "f75351d7c93eb3af46c0bb4d2916d01f87818281",
                "name": "Rupert Brooke Statue",
                "locality": "Grantchester",
                "district": "South Cambridgeshire"
            }
        },
        {
            "type": "Feature",
            "geometry": {
                "type": "Point",
                "coordinates": [
                    0.148122,
                    52.177414
                ]
            },
            "properties": {
                "id": "14ee208316df4365c51b75dff1840389cecae764",
                "name": "The Log Run",
                "locality": "Queen Edith's",
                "district": "Cambridge"
            }
        },
        {
            "type": "Feature",
            "geometry": {
                "type": "Point",
                "coordinates": [
                    0.150901,
                    52.178027
                ]
            },
            "properties": {
                "id": "bd57356b71c542fedcf05a009b87a83969b4f430",
                "name": "The Kids Are Cool",
                "locality": "Queen Edith's",
                "district": "Cambridge"
            }
        },
        {
            "type": "Feature",
            "geometry": {
                "type": "Point",
                "coordinates": [
                    0.169841,
                    52.178298
                ]
            },
            "properties": {
                "id": "c88da11eef6b103e9c38ff3c19128a4dc139f62a",
                "name": "Cherry Hinton East Chalk Pit Iron Age Hill Fort",
                "locality": "Cherry Hinton",
                "district": "Cambridge"
            }
        },
        {
            "type": "Feature",
            "geometry": {
                "type": "Point",
                "coordinates": [
                    0.095081,
                    52.180031
                ]
            },
            "properties": {
                "id": "733bc167288028cb2f7d38fa732c40f458221c44",
                "name": "The Green Man Pub",
                "locality": "Grantchester",
                "district": "South Cambridgeshire"
            }
        },
        {
            "type": "Feature",
            "geometry": {
                "type": "Point",
                "coordinates": [
                    0.152169,
                    52.181785
                ]
            },
            "properties": {
                "id": "e2fe2ddc3c8f7c4dadc710fc8fd769d5339852e6",
                "name": "St James' Church",
                "locality": "Queen Edith's",
                "district": "Cambridge"
            }
        },
        {
            "type": "Feature",
            "geometry": {
                "type": "Point",
                "coordinates": [
                    0.170081,
                    52.182352
                ]
            },
            "properties": {
                "id": "1e9ba86ed9c5b75fefc059424a7fe529d2e33781",
                "name": "Cherry Hinton Chalk Pits 2",
                "locality": "Cherry Hinton",
                "district": "Cambridge"
            }
        },
        {
            "type": "Feature",
            "geometry": {
                "type": "Point",
                "coordinates": [
                    0.171987,
                    52.185772
                ]
            },
            "properties": {
                "id": "4ceb0a7b69d7450fd385135963ec339dcfc8e071",
                "name": "The Red Lion",
                "locality": "Cherry Hinton",
                "district": "Cambridge"
            }
        },
        {
            "type": "Feature",
            "geometry": {
                "type": "Point",
                "coordinates": [
                    0.17324,
                    52.186231
                ]
            },
            "properties": {
                "id": "4e539c328afb4f20be5b59a6859c5b5f80b86fcc",
                "name": "Cherry Hinton Recreation Ground Memorial",
                "locality": "Cherry Hinton",
                "district": "Cambridge"
            }
        },
        {
            "type": "Feature",
            "geometry": {
                "type": "Point",
                "coordinates": [
                    0.16394,
                    52.186346
                ]
            },
            "properties": {
                "id": "d7e0177251fdf1e2a866026c267dfae207ba5319",
                "name": "Tree Tumblers",
                "locality": "Cherry Hinton",
                "district": "Cambridge"
            }
        },
        {
            "type": "Feature",
            "geometry": {
                "type": "Point",
                "coordinates": [
                    0.16704,
                    52.186474
                ]
            },
            "properties": {
                "id": "1280c70716a854c0652961a8c16b2c60dda922c6",
                "name": "Old Millstone",
                "locality": "Cherry Hinton",
                "district": "Cambridge"
            }
        },
        {
            "type": "Feature",
            "geometry": {
                "type": "Point",
                "coordinates": [
                    0.144091,
                    52.187384
                ]
            },
            "properties": {
                "id": "eba86382b91906ff3c47e260605a441fa2161be8",
                "name": "Quaker Society Meeting House",
                "locality": "Queen Edith's",
                "district": "Cambridge"
            }
        },
        {
            "type": "Feature",
            "geometry": {
                "type": "Point",
                "coordinates": [
                    0.144669,
                    52.187876
                ]
            },
            "properties": {
                "id": "2c38193935bade3b459c40757d575ee0b79f3fa2",
                "name": "Orthodox Church of St Athanasios",
                "locality": "Coleridge",
                "district": "Cambridge"
            }
        },
        {
            "type": "Feature",
            "geometry": {
                "type": "Point",
                "coordinates": [
                    0.175797,
                    52.188505
                ]
            },
            "properties": {
                "id": "2e57772d79b78ca8c96689b82dfda61b4a03abce",
                "name": "Cherry Hinton Baptist Church",
                "locality": "Cherry Hinton",
                "district": "Cambridge"
            }
        },
        {
            "type": "Feature",
            "geometry": {
                "type": "Point",
                "coordinates": [
                    0.132295,
                    52.190322
                ]
            },
            "properties": {
                "id": "d5eda1f0096159542029c61dbbbeb707093e25ad",
                "name": "The Moon, Sun and Stars",
                "locality": "Trumpington",
                "district": "Cambridge"
            }
        },
        {
            "type": "Feature",
            "geometry": {
                "type": "Point",
                "coordinates": [
                    0.135937,
                    52.190578
                ]
            },
            "properties": {
                "id": "b821324d73479696c2b0885e42cda9153b93e9a7",
                "name": "Cambridge Junction Arts",
                "locality": "Coleridge",
                "district": "Cambridge"
            }
        },
        {
            "type": "Feature",
            "geometry": {
                "type": "Point",
                "coordinates": [
                    0.136711,
                    52.190626
                ]
            },
            "properties": {
                "id": "785cae0e4aff537818aaf16a019579d91b85aac8",
                "name": "Junction Mural",
                "locality": "Coleridge",
                "district": "Cambridge"
            }
        },
        {
            "type": "Feature",
            "geometry": {
                "type": "Point",
                "coordinates": [
                    0.137583,
                    52.192709
                ]
            },
            "properties": {
                "id": "ea387b0e065eb283b8043699c341c8112254cd60",
                "name": "Post Office War Memorial",
                "locality": "Coleridge",
                "district": "Cambridge"
            }
        },
        {
            "type": "Feature",
            "geometry": {
                "type": "Point",
                "coordinates": [
                    0.149921,
                    52.193068
                ]
            },
            "properties": {
                "id": "f88a8f7e223d1e76a5bc384aaae63b4b21abcf6c",
                "name": "St. Martin's Church",
                "locality": "Coleridge",
                "district": "Cambridge"
            }
        },
        {
            "type": "Feature",
            "geometry": {
                "type": "Point",
                "coordinates": [
                    0.124594,
                    52.193242
                ]
            },
            "properties": {
                "id": "32ea6f3762a49d54473d8e2ca40b3117adb04e84",
                "name": "Systematic Beds of Herbaceous Plants",
                "locality": "Trumpington",
                "district": "Cambridge"
            }
        },
        {
            "type": "Feature",
            "geometry": {
                "type": "Point",
                "coordinates": [
                    0.135407,
                    52.193406
                ]
            },
            "properties": {
                "id": "18933885497ce3ab8365e2cfd4996ef9d1f37e10",
                "name": "Ceres",
                "locality": "Trumpington",
                "district": "Cambridge"
            }
        },
        {
            "type": "Feature",
            "geometry": {
                "type": "Point",
                "coordinates": [
                    0.126896,
                    52.19367
                ]
            },
            "properties": {
                "id": "852cb9761567bb37c62c42ff14a933db1c38a82a",
                "name": "Fountain at Cambridge University Botanic Garden",
                "locality": "Trumpington",
                "district": "Cambridge"
            }
        },
        {
            "type": "Feature",
            "geometry": {
                "type": "Point",
                "coordinates": [
                    0.123985,
                    52.193682
                ]
            },
            "properties": {
                "id": "ffaf84a857e334c36e619bbd04c37be877ac886d",
                "name": "The Dawn Redwood",
                "locality": "Trumpington",
                "district": "Cambridge"
            }
        },
        {
            "type": "Feature",
            "geometry": {
                "type": "Point",
                "coordinates": [
                    0.12637,
                    52.194297
                ]
            },
            "properties": {
                "id": "a899402db18386da927c362bb41be91b9538570b",
                "name": "Cambridge Gardens Greenhouse",
                "locality": "Trumpington",
                "district": "Cambridge"
            }
        },
        {
            "type": "Feature",
            "geometry": {
                "type": "Point",
                "coordinates": [
                    0.131756,
                    52.194472
                ]
            },
            "properties": {
                "id": "2b3efb32d87e1ed0bcc7edfcfb61a8598d44891e",
                "name": "Flying Pig",
                "locality": "Trumpington",
                "district": "Cambridge"
            }
        },
        {
            "type": "Feature",
            "geometry": {
                "type": "Point",
                "coordinates": [
                    0.131599,
                    52.194842
                ]
            },
            "properties": {
                "id": "1d72e6d30e2a89b3ab72fddcff9c9255418680b9",
                "name": "Kett House Tree",
                "locality": "Trumpington",
                "district": "Cambridge"
            }
        },
        {
            "type": "Feature",
            "geometry": {
                "type": "Point",
                "coordinates": [
                    0.115673,
                    52.195004
                ]
            },
            "properties": {
                "id": "e4f0234fcaeba70ece3844570afe28d62335b70b",
                "name": "Paradise LNR",
                "locality": "Newnham",
                "district": "Cambridge"
            }
        },
        {
            "type": "Feature",
            "geometry": {
                "type": "Point",
                "coordinates": [
                    0.109652,
                    52.195958
                ]
            },
            "properties": {
                "id": "3a638ba6bdca82c8c0abe5eb7a90720fb83174c7",
                "name": "Newnham Post Office",
                "locality": "Newnham",
                "district": "Cambridge"
            }
        },
        {
            "type": "Feature",
            "geometry": {
                "type": "Point",
                "coordinates": [
                    0.137777,
                    52.196111
                ]
            },
            "properties": {
                "id": "96d30de53cb41842bd1856fb1caaefd98b2d741d",
                "name": "Longest Covered Footbridge",
                "locality": "Petersfield",
                "district": "Cambridge"
            }
        },
        {
            "type": "Feature",
            "geometry": {
                "type": "Point",
                "coordinates": [
                    0.155376,
                    52.196114
                ]
            },
            "properties": {
                "id": "a5ed42d3b7360fae05d6da294563a4d1810384ec",
                "name": "The Brook",
                "locality": "Romsey",
                "district": "Cambridge"
            }
        },
        {
            "type": "Feature",
            "geometry": {
                "type": "Point",
                "coordinates": [
                    0.108243,
                    52.196463
                ]
            },
            "properties": {
                "id": "f9b3a5e50c90cacb5a3bda0e02c580bdfc87fd49",
                "name": "St Mark's Newnham",
                "locality": "Newnham",
                "district": "Cambridge"
            }
        },
        {
            "type": "Feature",
            "geometry": {
                "type": "Point",
                "coordinates": [
                    0.153946,
                    52.197542
                ]
            },
            "properties": {
                "id": "abedcb9badc029a7a4a1b2b4f125aed9a54b65d8",
                "name": "Stone Helix",
                "locality": "Romsey",
                "district": "Cambridge"
            }
        },
        {
            "type": "Feature",
            "geometry": {
                "type": "Point",
                "coordinates": [
                    0.146039,
                    52.19767
                ]
            },
            "properties": {
                "id": "3d5a18e0aa55d60a6d3b784cdd402dc36a10b17b",
                "name": "St. Philip's Church",
                "locality": "Romsey",
                "district": "Cambridge"
            }
        },
        {
            "type": "Feature",
            "geometry": {
                "type": "Point",
                "coordinates": [
                    0.123561,
                    52.197974
                ]
            },
            "properties": {
                "id": "1961be8acd9cd10e40f92f826577f5e6df276a94",
                "name": "Lensfield Hotel",
                "locality": "Trumpington",
                "district": "Cambridge"
            }
        },
        {
            "type": "Feature",
            "geometry": {
                "type": "Point",
                "coordinates": [
                    0.130207,
                    52.198147
                ]
            },
            "properties": {
                "name": "Sancton Wood Unicorn",
                "locality": "Trumpington",
                "district": "Cambridge",
                "removed": true
            }
        },
        {
            "type": "Feature",
            "geometry": {
                "type": "Point",
                "coordinates": [
                    0.125964,
                    52.198347
                ]
            },
            "properties": {
                "id": "c95bfaa59764e8a017c8132838220c6aa856edf0",
                "name": "Polar Harpoon Gun",
                "locality": "Trumpington",
                "district": "Cambridge"
            }
        },
        {
            "type": "Feature",
            "geometry": {
                "type": "Point",
                "coordinates": [
                    0.125462,
                    52.198577
                ]
            },
            "properties": {
                "id": "10108160cb3a6caa62ba56a247b5abc6f616a8dd",
                "name": "Downing College Back Gate",
                "locality": "Trumpington",
                "district": "Cambridge"
            }
        },
        {
            "type": "Feature",
            "geometry": {
                "type": "Point",
                "coordinates": [
                    0.12739,
                    52.199022
                ]
            },
            "properties": {
                "id": "264f0022ecb181e72286f1637576a13d7ef299f3",
                "name": "Our Lady and English Martyrs Church",
                "locality": "Trumpington",
                "district": "Cambridge"
            }
        },
        {
            "type": "Feature",
            "geometry": {
                "type": "Point",
                "coordinates": [
                    0.147127,
                    52.199063
                ]
            },
            "properties": {
                "id": "3eedca8a63e52f9d0014b9edd705f5228baa9324",
                "name": "Empress",
                "locality": "Romsey",
                "district": "Cambridge"
            }
        },
        {
            "type": "Feature",
            "geometry": {
                "type": "Point",
                "coordinates": [
                    0.139477,
                    52.199404
                ]
            },
            "properties": {
                "id": "37ca1d5b8246b8d95c5cb591f63191789693b732",
                "name": "Hot Numbers Mural",
                "locality": "Petersfield",
                "district": "Cambridge"
            }
        },
        {
            "type": "Feature",
            "geometry": {
                "type": "Point",
                "coordinates": [
                    0.138045,
                    52.19953
                ]
            },
            "properties": {
                "id": "3062fbf29ffbaa94b08affbd5ae1f23ea3c1c6bb",
                "name": "St. Barnabas' Church",
                "locality": "Petersfield",
                "district": "Cambridge"
            }
        },
        {
            "type": "Feature",
            "geometry": {
                "type": "Point",
                "coordinates": [
                    0.136689,
                    52.199832
                ]
            },
            "properties": {
                "id": "42b2f12e9ec4889f98c929782cb77c57e0236416",
                "name": "Salvation Army Hall",
                "locality": "Petersfield",
                "district": "Cambridge"
            }
        },
        {
            "type": "Feature",
            "geometry": {
                "type": "Point",
                "coordinates": [
                    0.120196,
                    52.199936
                ]
            },
            "properties": {
                "id": "f92c1db8c026fde0eb3cfff337fb7c759a66d995",
                "name": "The Fitzwilliam Museum",
                "locality": "Market",
                "district": "Cambridge"
            }
        },
        {
            "type": "Feature",
            "geometry": {
                "type": "Point",
                "coordinates": [
                    0.138502,
                    52.200036
                ]
            },
            "properties": {
                "id": "0a77094e688276848eeedc459adbbdc1b08666a9",
                "name": "Dales Brewery",
                "locality": "Petersfield",
                "district": "Cambridge"
            }
        },
        {
            "type": "Feature",
            "geometry": {
                "type": "Point",
                "coordinates": [
                    0.157105,
                    52.20031
                ]
            },
            "properties": {
                "id": "e0943bf2e61dff54b138edb64c9b138ae6114ec2",
                "name": "The C3 Centre",
                "locality": "Romsey",
                "district": "Cambridge"
            }
        },
        {
            "type": "Feature",
            "geometry": {
                "type": "Point",
                "coordinates": [
                    0.118771,
                    52.201021
                ]
            },
            "properties": {
                "id": "a49d6352f00d26f9b3fb71aa4cb0505eb48dbe75",
                "name": "Peterhouse",
                "locality": "Market",
                "district": "Cambridge"
            }
        },
        {
            "type": "Feature",
            "geometry": {
                "type": "Point",
                "coordinates": [
                    0.105527,
                    52.201007
                ]
            },
            "properties": {
                "id": "7af27f154293cf67afc0871341b9ed89febe408e",
                "name": "Selwyn College Plodge",
                "locality": "Newnham",
                "district": "Cambridge"
            }
        },
        {
            "type": "Feature",
            "geometry": {
                "type": "Point",
                "coordinates": [
                    0.109341,
                    52.201284
                ]
            },
            "properties": {
                "id": "ef45e75caa109141292297f7271a42c93dfd3049",
                "name": "Sidgwick",
                "locality": "Newnham",
                "district": "Cambridge"
            }
        },
        {
            "type": "Feature",
            "geometry": {
                "type": "Point",
                "coordinates": [
                    0.100541,
                    52.201323
                ]
            },
            "properties": {
                "id": "31c931ad4300176d0ed4c4a25f85b45f4dea8ba9",
                "name": "George Thomson Building",
                "locality": "Newnham",
                "district": "Cambridge"
            }
        },
        {
            "type": "Feature",
            "geometry": {
                "type": "Point",
                "coordinates": [
                    0.101062,
                    52.201568
                ]
            },
            "properties": {
                "id": "ed260d9515a0ef8bf9fd8c35f7f0830fa40c3f90",
                "name": "Leckhampton House",
                "locality": "Newnham",
                "district": "Cambridge"
            }
        },
        {
            "type": "Feature",
            "geometry": {
                "type": "Point",
                "coordinates": [
                    0.109002,
                    52.201594
                ]
            },
            "properties": {
                "id": "ee0ca572b3c676b9119e9f443204af3bafbdcbd8",
                "name": "Faculty of Law",
                "locality": "Newnham",
                "district": "Cambridge"
            }
        },
        {
            "type": "Feature",
            "geometry": {
                "type": "Point",
                "coordinates": [
                    0.128176,
                    52.202171
                ]
            },
            "properties": {
                "id": "ce6e43c72f7b42a7b831262084c890d2bccb2d24",
                "name": "Reality Checkpoint",
                "locality": "Market",
                "district": "Cambridge"
            }
        },
        {
            "type": "Feature",
            "geometry": {
                "type": "Point",
                "coordinates": [
                    0.131224,
                    52.202182
                ]
            },
            "properties": {
                "id": "7f5cdea8eaf3988dd71339f61741d35af7a43471",
                "name": "Skate Park",
                "locality": "Petersfield",
                "district": "Cambridge"
            }
        },
        {
            "type": "Feature",
            "geometry": {
                "type": "Point",
                "coordinates": [
                    0.136162,
                    52.202475
                ]
            },
            "properties": {
                "id": "d0e5e0ac217e03a8d14f837d980ee79d6706b64b",
                "name": "Rattee Memorial",
                "locality": "Petersfield",
                "district": "Cambridge"
            }
        },
        {
            "type": "Feature",
            "geometry": {
                "type": "Point",
                "coordinates": [
                    0.138675,
                    52.203147
                ]
            },
            "properties": {
                "id": "a013a66322fdea9ec4c9d10f76aee3b9843c151e",
                "name": "Black Bird",
                "locality": "Petersfield",
                "district": "Cambridge"
            }
        },
        {
            "type": "Feature",
            "geometry": {
                "type": "Point",
                "coordinates": [
                    0.132548,
                    52.203672
                ]
            },
            "properties": {
                "id": "6a3cfa7e1c0ea166dd84ba1d1fc08b7632039112",
                "name": "Zion Baptist Church",
                "locality": "Petersfield",
                "district": "Cambridge"
            }
        },
        {
            "type": "Feature",
            "geometry": {
                "type": "Point",
                "coordinates": [
                    0.117669,
                    52.203739
                ]
            },
            "properties": {
                "id": "b87088c0523fafd2bf25a9a6934c124521cbdee9",
                "name": "The Corpus Clock",
                "locality": "Market",
                "district": "Cambridge"
            }
        },
        {
            "type": "Feature",
            "geometry": {
                "type": "Point",
                "coordinates": [
                    0.188013,
                    52.204587
                ]
            },
            "properties": {
                "id": "92bbd25c4f7bd8caedca9535c83ed4f5495786d1",
                "name": "All Saints Teversham Church",
                "locality": "Teversham",
                "district": "South Cambridgeshire"
            }
        },
        {
            "type": "Feature",
            "geometry": {
                "type": "Point",
                "coordinates": [
                    0.136495,
                    52.204797
                ]
            },
            "properties": {
                "id": "031408baa0f7cd8f0d7f3cf3f2b74392075137cc",
                "name": "Blue Moon Pub",
                "locality": "Petersfield",
                "district": "Cambridge"
            }
        },
        {
            "type": "Feature",
            "geometry": {
                "type": "Point",
                "coordinates": [
                    0.112552,
                    52.204924
                ]
            },
            "properties": {
                "id": "c7599b71aed84b3ccd2c6ccfffca7ccc41676ef8",
                "name": "Confucius",
                "locality": "Newnham",
                "district": "Cambridge"
            }
        },
        {
            "type": "Feature",
            "geometry": {
                "type": "Point",
                "coordinates": [
                    0.10847,
                    52.205051
                ]
            },
            "properties": {
                "id": "ca729377396d4c00710c186954246773b65ce9e1",
                "name": "Cambridge University Library",
                "locality": "Newnham",
                "district": "Cambridge"
            }
        },
        {
            "type": "Feature",
            "geometry": {
                "type": "Point",
                "coordinates": [
                    0.119443,
                    52.205067
                ]
            },
            "properties": {
                "id": "cca4e76a912bff133da41e3d8df81693d13dedbd",
                "name": "Snowy Farr Memorial Sculpture",
                "locality": "Market",
                "district": "Cambridge"
            }
        },
        {
            "type": "Feature",
            "geometry": {
                "type": "Point",
                "coordinates": [
                    0.104946,
                    52.205133
                ]
            },
            "properties": {
                "id": "e795d90c4cf8e45970a6341742485fddde245d5b",
                "name": "Statues, Robinson College",
                "locality": "Newnham",
                "district": "Cambridge"
            }
        },
        {
            "type": "Feature",
            "geometry": {
                "type": "Point",
                "coordinates": [
                    0.103834,
                    52.205196
                ]
            },
            "properties": {
                "id": "610180e8189d9893b2d123d5fde2ebc4a21340c9",
                "name": "Philip de Koning \"Sailing to the Future\"",
                "locality": "Newnham",
                "district": "Cambridge"
            }
        },
        {
            "type": "Feature",
            "geometry": {
                "type": "Point",
                "coordinates": [
                    0.121927,
                    52.205296
                ]
            },
            "properties": {
                "id": "e0bff146facb159abd2d806d7e06739d1c8abd68",
                "name": "Christ's College Gate",
                "locality": "Market",
                "district": "Cambridge"
            }
        },
        {
            "type": "Feature",
            "geometry": {
                "type": "Point",
                "coordinates": [
                    0.119056,
                    52.205356
                ]
            },
            "properties": {
                "id": "c492af2fcae49f03204b8f994732f7ec63c53d62",
                "name": "Market Square Fountain",
                "locality": "Market",
                "district": "Cambridge"
            }
        },
        {
            "type": "Feature",
            "geometry": {
                "type": "Point",
                "coordinates": [
                    0.120715,
                    52.205853
                ]
            },
            "properties": {
                "id": "5ced71b2d8c657f1a1801dedf0ebe706acd66844",
                "name": "Holy Trinity War Memorial",
                "locality": "Market",
                "district": "Cambridge"
            }
        },
        {
            "type": "Feature",
            "geometry": {
                "type": "Point",
                "coordinates": [
                    0.143709,
                    52.206048
                ]
            },
            "properties": {
                "id": "93a9e736cfdb036c17514fd2fe276ebb32b40c03",
                "name": "Beehive Honeycomb",
                "locality": "Petersfield",
                "district": "Cambridge"
            }
        },
        {
            "type": "Feature",
            "geometry": {
                "type": "Point",
                "coordinates": [
                    0.120966,
                    52.206746
                ]
            },
            "properties": {
                "id": "bfe612bd2205a7979a9e74202b601f84cfb896a0",
                "name": "Sidney Sussex Obelisk",
                "locality": "Market",
                "district": "Cambridge"
            }
        },
        {
            "type": "Feature",
            "geometry": {
                "type": "Point",
                "coordinates": [
                    0.16459,
                    52.206788
                ]
            },
            "properties": {
                "id": "4d04dbbe0e47475b5252299cdc46c00c0fb84cc2",
                "name": "Quorum Fountain",
                "locality": "Abbey",
                "district": "Cambridge"
            }
        },
        {
            "type": "Feature",
            "geometry": {
                "type": "Point",
                "coordinates": [
                    0.127162,
                    52.207181
                ]
            },
            "properties": {
                "id": "ddfbea7901e975b03f4e077bf876517d8cbd5011",
                "name": "Wesley Methodist Church Sculpture",
                "locality": "Market",
                "district": "Cambridge"
            }
        },
        {
            "type": "Feature",
            "geometry": {
                "type": "Point",
                "coordinates": [
                    0.124419,
                    52.207314
                ]
            },
            "properties": {
                "id": "940d19c1a17d001b115b713f2062320486db5ace",
                "name": "Champion of the Thames",
                "locality": "Market",
                "district": "Cambridge"
            }
        },
        {
            "type": "Feature",
            "geometry": {
                "type": "Point",
                "coordinates": [
                    0.129274,
                    52.207373
                ]
            },
            "properties": {
                "id": "c8f2c0254750273740371ebab3070e0429660155",
                "name": "The Hopbine",
                "locality": "Market",
                "district": "Cambridge"
            }
        },
        {
            "type": "Feature",
            "geometry": {
                "type": "Point",
                "coordinates": [
                    0.122116,
                    52.20743
                ]
            },
            "properties": {
                "id": "0861d52f71999ce2d8c02ccd25223b4402f89369",
                "name": "Cambridge Brew House",
                "locality": "Market",
                "district": "Cambridge"
            }
        },
        {
            "type": "Feature",
            "geometry": {
                "type": "Point",
                "coordinates": [
                    0.118282,
                    52.207477
                ]
            },
            "properties": {
                "id": "c6ddcb8099c60e312242ab69bf381950b8c8848c",
                "name": "All Saints Cross",
                "locality": "Market",
                "district": "Cambridge"
            }
        },
        {
            "type": "Feature",
            "geometry": {
                "type": "Point",
                "coordinates": [
                    0.096502,
                    52.207957
                ]
            },
            "properties": {
                "id": "9e6ffc47e7efe48c898557881980c8f0210b0f83",
                "name": "Cambridge Lawn Tennis Club",
                "locality": "Newnham",
                "district": "Cambridge"
            }
        },
        {
            "type": "Feature",
            "geometry": {
                "type": "Point",
                "coordinates": [
                    0.132871,
                    52.208177
                ]
            },
            "properties": {
                "id": "42ab452f82fe9ced707d6bd36792135bbd3f66f9",
                "name": "The Burleigh Arms",
                "locality": "Market",
                "district": "Cambridge"
            }
        },
        {
            "type": "Feature",
            "geometry": {
                "type": "Point",
                "coordinates": [
                    0.118868,
                    52.208433
                ]
            },
            "properties": {
                "id": "25b0892786ea4f82fce19aeb0e48c46c61e945c0",
                "name": "Round Church",
                "locality": "Market",
                "district": "Cambridge"
            }
        },
        {
            "type": "Feature",
            "geometry": {
                "type": "Point",
                "coordinates": [
                    0.120085,
                    52.208551
                ]
            },
            "properties": {
                "id": "c527bf4262fab7d19cf30cf55f71db849d11e091",
                "name": "ADC Theatre",
                "locality": "Market",
                "district": "Cambridge"
            }
        },
        {
            "type": "Feature",
            "geometry": {
                "type": "Point",
                "coordinates": [
                    0.154752,
                    52.208616
                ]
            },
            "properties": {
                "id": "9d8337d87df64d2ef508587aaa9a9963e1fec2ee",
                "name": "Coldhams Common BMX Park",
                "locality": "Abbey",
                "district": "Cambridge"
            }
        },
        {
            "type": "Feature",
            "geometry": {
                "type": "Point",
                "coordinates": [
                    0.111268,
                    52.208816
                ]
            },
            "properties": {
                "id": "a3cb832a81a646e865e350fbc2d138710e47ef3d",
                "name": "West Gate Eagle, St John's College",
                "locality": "Castle",
                "district": "Cambridge"
            }
        },
        {
            "type": "Feature",
            "geometry": {
                "type": "Point",
                "coordinates": [
                    0.10292,
                    52.209385
                ]
            },
            "properties": {
                "id": "173c4264204980109c1a35c8006a53b2e6529abb",
                "name": "'Genesis' by John Robinson",
                "locality": "Newnham",
                "district": "Cambridge"
            }
        },
        {
            "type": "Feature",
            "geometry": {
                "type": "Point",
                "coordinates": [
                    0.087425,
                    52.209708
                ]
            },
            "properties": {
                "id": "70cadf74f45906eb7ef413178fbed7c5c8ef50b8",
                "name": "Institute For Manufacturing",
                "locality": "Newnham",
                "district": "Cambridge"
            }
        },
        {
            "type": "Feature",
            "geometry": {
                "type": "Point",
                "coordinates": [
                    0.066411,
                    52.209827
                ]
            },
            "properties": {
                "id": "37f78589cfc71606cf2d55554adf5bc689325b2a",
                "name": "The Plough Coton",
                "locality": "Coton",
                "district": "South Cambridgeshire",
                "removed": true
            }
        },
        {
            "type": "Feature",
            "geometry": {
                "type": "Point",
                "coordinates": [
                    0.144128,
                    52.210032
                ]
            },
            "properties": {
                "id": "c91a89cf8fa30089d803cb81a38c95d859c7e288",
                "name": "The Remembered",
                "locality": "Abbey",
                "district": "Cambridge"
            }
        },
        {
            "type": "Feature",
            "geometry": {
                "type": "Point",
                "coordinates": [
                    0.102992,
                    52.210102
                ]
            },
            "properties": {
                "id": "d8a40195bd72d67c880e08b791083723c20e284c",
                "name": "Betty and Gordon Moore Library",
                "locality": "Newnham",
                "district": "Cambridge"
            }
        },
        {
            "type": "Feature",
            "geometry": {
                "type": "Point",
                "coordinates": [
                    0.060367,
                    52.210293
                ]
            },
            "properties": {
                "id": "adfae34a4be4ae9cd2cbed187b4490a2d22caa21",
                "name": "Coton St. Peter's Church",
                "locality": "Coton",
                "district": "South Cambridgeshire"
            }
        },
        {
            "type": "Feature",
            "geometry": {
                "type": "Point",
                "coordinates": [
                    0.092895,
                    52.210407
                ]
            },
            "properties": {
                "id": "ee2bffd030ed16e86ed957e48968b4cd7238dc6f",
                "name": "Electrical Engineering Division",
                "locality": "Newnham",
                "district": "Cambridge"
            }
        },
        {
            "type": "Feature",
            "geometry": {
                "type": "Point",
                "coordinates": [
                    0.147658,
                    52.210414
                ]
            },
            "properties": {
                "id": "bee88f01c26449ea2f873bb841faa917cb52d821",
                "name": "Iron Spike",
                "locality": "Abbey",
                "district": "Cambridge"
            }
        },
        {
            "type": "Feature",
            "geometry": {
                "type": "Point",
                "coordinates": [
                    0.173643,
                    52.210852
                ]
            },
            "properties": {
                "id": "b8d061fa5afb86587357bd8318d142efbfb8fc07",
                "name": "Cambridge International Airport",
                "locality": "Teversham",
                "district": "South Cambridgeshire"
            }
        },
        {
            "type": "Feature",
            "geometry": {
                "type": "Point",
                "coordinates": [
                    0.13871,
                    52.21096
                ]
            },
            "properties": {
                "id": "6adbd94f2841183d7c98974d02a7e43d76bab5ae",
                "name": "Spiky Post Box",
                "locality": "Abbey",
                "district": "Cambridge"
            }
        },
        {
            "type": "Feature",
            "geometry": {
                "type": "Point",
                "coordinates": [
                    0.13684,
                    52.21127
                ]
            },
            "properties": {
                "id": "5a1e6d835b0245d4ef5b24ec4cc9f64d9562c41c",
                "name": "Giant Anchor",
                "locality": "East Chesterton",
                "district": "Cambridge"
            }
        },
        {
            "type": "Feature",
            "geometry": {
                "type": "Point",
                "coordinates": [
                    0.163201,
                    52.211503
                ]
            },
            "properties": {
                "id": "e855337e06fa137076ac39cedc0409f3c0f7792d",
                "name": "Barnwell Road Library",
                "locality": "Abbey",
                "district": "Cambridge"
            }
        },
        {
            "type": "Feature",
            "geometry": {
                "type": "Point",
                "coordinates": [
                    0.113675,
                    52.211582
                ]
            },
            "properties": {
                "id": "adba19ad870223312c7de91b47b9e33f73828b2b",
                "name": "Castle Street Methodist Church",
                "locality": "Castle",
                "district": "Cambridge"
            }
        },
        {
            "type": "Feature",
            "geometry": {
                "type": "Point",
                "coordinates": [
                    0.092186,
                    52.211965
                ]
            },
            "properties": {
                "id": "b43217a0cb7900ba24b5503ac5acfc3f799dc17a",
                "name": "Whittle Labs",
                "locality": "Newnham",
                "district": "Cambridge"
            }
        },
        {
            "type": "Feature",
            "geometry": {
                "type": "Point",
                "coordinates": [
                    0.135622,
                    52.21241
                ]
            },
            "properties": {
                "id": "fe769caa654201faa57516e06e535f2076c29ba7",
                "name": "Statue of the Meadows",
                "locality": "West Chesterton",
                "district": "Cambridge"
            }
        },
        {
            "type": "Feature",
            "geometry": {
                "type": "Point",
                "coordinates": [
                    0.080717,
                    52.212504
                ]
            },
            "properties": {
                "id": "e6daef4142f88a17798180951aa996526fd30c02",
                "name": "British Antarctic Survey Sledge Dog Monument",
                "locality": "Newnham",
                "district": "Cambridge"
            }
        },
        {
            "type": "Feature",
            "geometry": {
                "type": "Point",
                "coordinates": [
                    0.108678,
                    52.212944
                ]
            },
            "properties": {
                "id": "435d55b43f6ebe4766ab3b8eb8c9e55a004a0db2",
                "name": "St Edmund's Chapel",
                "locality": "Castle",
                "district": "Cambridge"
            }
        },
        {
            "type": "Feature",
            "geometry": {
                "type": "Point",
                "coordinates": [
                    0.094109,
                    52.213434
                ]
            },
            "properties": {
                "id": "b32483b99e5ce89b04c97719bfcde2fc5d830e12",
                "name": "36 Inch Telescope",
                "locality": "Castle",
                "district": "Cambridge"
            }
        },
        {
            "type": "Feature",
            "geometry": {
                "type": "Point",
                "coordinates": [
                    0.123298,
                    52.213654
                ]
            },
            "properties": {
                "id": "f86fa6c2110df2d845fd33212c08b3d451ab2ac5",
                "name": "Greene King The Boat House",
                "locality": "West Chesterton",
                "district": "Cambridge"
            }
        },
        {
            "type": "Feature",
            "geometry": {
                "type": "Point",
                "coordinates": [
                    0.152536,
                    52.213831
                ]
            },
            "properties": {
                "id": "ce03bfa3eef99d30f721974779d88d9d45e98856",
                "name": "The Leper Chapel",
                "locality": "Abbey",
                "district": "Cambridge"
            }
        },
        {
            "type": "Feature",
            "geometry": {
                "type": "Point",
                "coordinates": [
                    0.107903,
                    52.213979
                ]
            },
            "properties": {
                "id": "d40956a6140bdd3ca38510885a673667b43b6bca",
                "name": "Gathering Of Owls",
                "locality": "Castle",
                "district": "Cambridge"
            }
        },
        {
            "type": "Feature",
            "geometry": {
                "type": "Point",
                "coordinates": [
                    0.098921,
                    52.214098
                ]
            },
            "properties": {
                "id": "e957476f7799fcc95caa0e635af0135196c30018",
                "name": "The M\u00f8ller Centre",
                "locality": "Castle",
                "district": "Cambridge"
            }
        },
        {
            "type": "Feature",
            "geometry": {
                "type": "Point",
                "coordinates": [
                    0.12541,
                    52.214191
                ]
            },
            "properties": {
                "id": "508cb2049f3dd36c6c41706a952add214c1d0c71",
                "name": "The Waterman Pub",
                "locality": "West Chesterton",
                "district": "Cambridge"
            }
        },
        {
            "type": "Feature",
            "geometry": {
                "type": "Point",
                "coordinates": [
                    0.105251,
                    52.214443
                ]
            },
            "properties": {
                "id": "194490a730b03f8115fd50e948d98a02049a66ff",
                "name": "H C W Barrett Plaque",
                "locality": "Castle",
                "district": "Cambridge"
            }
        },
        {
            "type": "Feature",
            "geometry": {
                "type": "Point",
                "coordinates": [
                    0.127957,
                    52.214457
                ]
            },
            "properties": {
                "id": "938594a9bf3755bacce64ffb9f126ceea96f37b4",
                "name": "The Old Spring",
                "locality": "West Chesterton",
                "district": "Cambridge"
            }
        },
        {
            "type": "Feature",
            "geometry": {
                "type": "Point",
                "coordinates": [
                    0.168062,
                    52.214942
                ]
            },
            "properties": {
                "id": "23c1fdd0174c340d537fb431f71874c09f405033",
                "name": "Catholic Church of St. Vincent De Paul",
                "locality": "Abbey",
                "district": "Cambridge"
            }
        },
        {
            "type": "Feature",
            "geometry": {
                "type": "Point",
                "coordinates": [
                    0.139326,
                    52.215533
                ]
            },
            "properties": {
                "id": "0826bd5edb5504393a91ae0499fb2d90b9d90afb",
                "name": "Chesterton War Memorial",
                "locality": "East Chesterton",
                "district": "Cambridge"
            }
        },
        {
            "type": "Feature",
            "geometry": {
                "type": "Point",
                "coordinates": [
                    0.116084,
                    52.215772
                ]
            },
            "properties": {
                "id": "ab8b3f455b1763c6ae8cc2fe8cc717619bea79eb",
                "name": "Saint Luke's Church",
                "locality": "Arbury",
                "district": "Cambridge"
            }
        },
        {
            "type": "Feature",
            "geometry": {
                "type": "Point",
                "coordinates": [
                    0.111086,
                    52.216085
                ]
            },
            "properties": {
                "id": "cfd9fe72ef40ca65c0faed8ceeca5fedfb26a9fb",
                "name": "Friends of Histon Road Cemetery",
                "locality": "Arbury",
                "district": "Cambridge"
            }
        },
        {
            "type": "Feature",
            "geometry": {
                "type": "Point",
                "coordinates": [
                    0.056761,
                    52.216263
                ]
            },
            "properties": {
                "id": "aeed88e9fcc7e6daa4de52c7fb058c29de38e08e",
                "name": "Madingley American Cemetery - Operations Map",
                "locality": "Madingley",
                "district": "South Cambridgeshire"
            }
        },
        {
            "type": "Feature",
            "geometry": {
                "type": "Point",
                "coordinates": [
                    0.099802,
                    52.217273
                ]
            },
            "properties": {
                "id": "f9de5989feafe596f2ab5ee7cd5a72157a543aac",
                "name": "Ascension Parish Burial Ground",
                "locality": "Castle",
                "district": "Cambridge"
            }
        },
        {
            "type": "Feature",
            "geometry": {
                "type": "Point",
                "coordinates": [
                    0.139336,
                    52.217501
                ]
            },
            "properties": {
                "id": "30bf31d74a7b6c5fa7f6c7282d3908a691115d42",
                "name": "Haymakers Chesterton",
                "locality": "East Chesterton",
                "district": "Cambridge"
            }
        },
        {
            "type": "Feature",
            "geometry": {
                "type": "Point",
                "coordinates": [
                    0.145767,
                    52.217543
                ]
            },
            "properties": {
                "id": "0137ee50e2da87058b1e8b9a6eeb1cf4b1e8ac93",
                "name": "Green Dragon Bridge",
                "locality": "East Chesterton",
                "district": "Cambridge"
            }
        },
        {
            "type": "Feature",
            "geometry": {
                "type": "Point",
                "coordinates": [
                    0.14551,
                    52.217878
                ]
            },
            "properties": {
                "id": "b7aacaf295bb5d97605ba21c40c88332bcc83f5a",
                "name": "Green Dragon Pub",
                "locality": "East Chesterton",
                "district": "Cambridge"
            }
        },
        {
            "type": "Feature",
            "geometry": {
                "type": "Point",
                "coordinates": [
                    0.129371,
                    52.218109
                ]
            },
            "properties": {
                "id": "b28f5f7e267500f5f052fa5b538889516acfd1d4",
                "name": "St Laurence's RC Church",
                "locality": "West Chesterton",
                "district": "Cambridge"
            }
        },
        {
            "type": "Feature",
            "geometry": {
                "type": "Point",
                "coordinates": [
                    0.137054,
                    52.218417
                ]
            },
            "properties": {
                "id": "23a561027a040c5bd5f911f79c296b1ab010fc66",
                "name": "Chesterton Medical Centre Art",
                "locality": "East Chesterton",
                "district": "Cambridge"
            }
        },
        {
            "type": "Feature",
            "geometry": {
                "type": "Point",
                "coordinates": [
                    0.107894,
                    52.219744
                ]
            },
            "properties": {
                "id": "653512ba0d7f74176528075b7914c32f2ab22f9f",
                "name": "St. Augustine's Church",
                "locality": "Castle",
                "district": "Cambridge"
            }
        },
        {
            "type": "Feature",
            "geometry": {
                "type": "Point",
                "coordinates": [
                    0.172516,
                    52.22043
                ]
            },
            "properties": {
                "id": "dad65552a1037257288cb486adc194feada4d932",
                "name": "Ancient Shepherds Pub",
                "locality": "Fen Ditton",
                "district": "South Cambridgeshire"
            }
        },
        {
            "type": "Feature",
            "geometry": {
                "type": "Point",
                "coordinates": [
                    0.119023,
                    52.22215
                ]
            },
            "properties": {
                "id": "13a5f7fe03a9f905c002e87018583c9c78dbe864",
                "name": "The Carlton Arms",
                "locality": "Arbury",
                "district": "Cambridge"
            }
        },
        {
            "type": "Feature",
            "geometry": {
                "type": "Point",
                "coordinates": [
                    0.158292,
                    52.223916
                ]
            },
            "properties": {
                "name": "Cambridge North Station",
                "locality": "East Chesterton",
                "district": "Cambridge"
            }
        },
        {
            "type": "Feature",
            "geometry": {
                "type": "Point",
                "coordinates": [
                    0.168317,
                    52.223983
                ]
            },
            "properties": {
                "id": "4ed1c4967a5d4e392dfa7a2a3a7dc7d20648e1a6",
                "name": "The Plough Fen Ditton",
                "locality": "Fen Ditton",
                "district": "South Cambridgeshire"
            }
        },
        {
            "type": "Feature",
            "geometry": {
                "type": "Point",
                "coordinates": [
                    0.128737,
                    52.225112
                ]
            },
            "properties": {
                "id": "24a4f354cbac95c3895eb3805c6bd1f29eedb98e",
                "name": "Cambridge Gurdwara",
                "locality": "King's Hedges",
                "district": "Cambridge"
            }
        },
        {
            "type": "Feature",
            "geometry": {
                "type": "Point",
                "coordinates": [
                    0.145461,
                    52.227814
                ]
            },
            "properties": {
                "id": "26deef55e139d32be495a7eed3bcd65777625cfe",
                "name": "Golden Hind Pub, Cambridge",
                "locality": "King's Hedges",
                "district": "Cambridge"
            }
        },
        {
            "type": "Feature",
            "geometry": {
                "type": "Point",
                "coordinates": [
                    0.137149,
                    52.229567
                ]
            },
            "properties": {
                "name": "Jenny Wren",
                "locality": "King's Hedges",
                "district": "Cambridge",
                "removed": true
            }
        },
        {
            "type": "Feature",
            "geometry": {
                "type": "Point",
                "coordinates": [
                    0.138863,
                    52.230217
                ]
            },
            "properties": {
                "id": "00f093e8584971df99ce254b8b822b0a5b46342c",
                "name": "Kid's Play Area",
                "locality": "King's Hedges",
                "district": "Cambridge"
            }
        },
        {
            "type": "Feature",
            "geometry": {
                "type": "Point",
                "coordinates": [
                    0.146762,
                    52.230273
                ]
            },
            "properties": {
                "id": "7318d8527e4d44aec441def96da633ce07c4e93a",
                "name": "Cambridge Science Park East",
                "locality": "Milton",
                "district": "South Cambridgeshire"
            }
        },
        {
            "type": "Feature",
            "geometry": {
                "type": "Point",
                "coordinates": [
                    0.117612,
                    52.230794
                ]
            },
            "properties": {
                "id": "e45cdc295a920167b0c3c62d011fd0bf5711c523",
                "name": "Meadows Community Centre",
                "locality": "Impington",
                "district": "South Cambridgeshire"
            }
        },
        {
            "type": "Feature",
            "geometry": {
                "type": "Point",
                "coordinates": [
                    0.149805,
                    52.231294
                ]
            },
            "properties": {
                "id": "6b1110421a4ab63cd1c899a0e57a779eaeb418c2",
                "name": "Cambridge Science Park",
                "locality": "East Chesterton",
                "district": "Cambridge"
            }
        },
        {
            "type": "Feature",
            "geometry": {
                "type": "Point",
                "coordinates": [
                    0.128751,
                    52.231356
                ]
            },
            "properties": {
                "id": "815997385c427f348841f5de494ff1b2e0f32885",
                "name": "Underpass Graffiti Mural",
                "locality": "King's Hedges",
                "district": "Cambridge"
            }
        },
        {
            "type": "Feature",
            "geometry": {
                "type": "Point",
                "coordinates": [
                    0.122129,
                    52.232315
                ]
            },
            "properties": {
                "id": "09ca871eb3dc48179494f93cf7483033a6139d71",
                "name": "Buchan Street Neighbourhood Centre",
                "locality": "King's Hedges",
                "district": "Cambridge"
            }
        },
        {
            "type": "Feature",
            "geometry": {
                "type": "Point",
                "coordinates": [
                    0.136193,
                    52.233797
                ]
            },
            "properties": {
                "id": "786b65fd7fd081cadad8e0d022fc10beec836ff1",
                "name": "Cambridge Science Park West",
                "locality": "Milton",
                "district": "South Cambridgeshire"
            }
        },
        {
            "type": "Feature",
            "geometry": {
                "type": "Point",
                "coordinates": [
                    0.120224,
                    52.234163
                ]
            },
            "properties": {
                "id": "1dfd73b6147caf55ea3ae51c5abede54ed5ccd86",
                "name": "Number Snake",
                "locality": "Orchard Park",
                "district": "South Cambridgeshire"
            }
        },
        {
            "type": "Feature",
            "geometry": {
                "type": "Point",
                "coordinates": [
                    0.140488,
                    52.234379
                ]
            },
            "properties": {
                "id": "40a6232d3751faaf7e053466f660c4999a5bacf7",
                "name": "Five Poles Sculpture",
                "locality": "Milton",
                "district": "South Cambridgeshire"
            }
        },
        {
            "type": "Feature",
            "geometry": {
                "type": "Point",
                "coordinates": [
                    0.130752,
                    52.234851
                ]
            },
            "properties": {
                "id": "d5ec64a66dcb97c61cef5a6e63ccd0e663d35248",
                "name": "Waveguide",
                "locality": "King's Hedges",
                "district": "Cambridge"
            }
        },
        {
            "type": "Feature",
            "geometry": {
                "type": "Point",
                "coordinates": [
                    0.125694,
                    52.234953
                ]
            },
            "properties": {
                "id": "ad736c4cc968905e2dce5927223428717b2efc42",
                "name": "Four Leaf Clover",
                "locality": "Orchard Park",
                "district": "South Cambridgeshire",
                "removed": true
            }
        },
        {
            "type": "Feature",
            "geometry": {
                "type": "Point",
                "coordinates": [
                    0.120207,
                    52.235181
                ]
            },
            "properties": {
                "id": "64a1a8a0264bdea890b154204f2211a1fc9c1dfd",
                "name": "Travelodge Deer",
                "locality": "Orchard Park",
                "district": "South Cambridgeshire"
            }
        },
        {
            "type": "Feature",
            "geometry": {
                "type": "Point",
                "coordinates": [
                    0.153038,
                    52.235627
                ]
            },
            "properties": {
                "id": "6f551aa0ceb227f8c0548c20ed175ecb5836fc4d",
                "name": "Fountain - Innovation Park",
                "locality": "Milton",
                "district": "South Cambridgeshire"
            }
        },
        {
            "type": "Feature",
            "geometry": {
                "type": "Point",
                "coordinates": [
                    0.126148,
                    52.235696
                ]
            },
            "properties": {
                "id": "2758e0adb8e45af3f66dc026537b5918d99de855",
                "name": "OP - Stone Shards Alpha",
                "locality": "Orchard Park",
                "district": "South Cambridgeshire"
            }
        },
        {
            "type": "Feature",
            "geometry": {
                "type": "Point",
                "coordinates": [
                    0.165696,
                    52.236106
                ]
            },
            "properties": {
                "id": "87879f39ad3998c22a1077383c16db9abb4b3f67",
                "name": "Milton Park Memorial",
                "locality": "Milton",
                "district": "South Cambridgeshire"
            }
        },
        {
            "type": "Feature",
            "geometry": {
                "type": "Point",
                "coordinates": [
                    0.163274,
                    52.236384
                ]
            },
            "properties": {
                "id": "0a30091105bb79320b78b331daebe0303130dc8b",
                "name": "Rainbow Poles",
                "locality": "Milton",
                "district": "South Cambridgeshire"
            }
        },
        {
            "type": "Feature",
            "geometry": {
                "type": "Point",
                "coordinates": [
                    0.162541,
                    52.236503
                ]
            },
            "properties": {
                "id": "f1e693312ea63e1790ce8b1fea9581b50eb38f64",
                "name": "The Wild Place",
                "locality": "Milton",
                "district": "South Cambridgeshire"
            }
        },
        {
            "type": "Feature",
            "geometry": {
                "type": "Point",
                "coordinates": [
                    0.154624,
                    52.238754
                ]
            },
            "properties": {
                "id": "32997236018b838a878b70da57b7c5a104b63674",
                "name": "Tesco Clock Tower",
                "locality": "Milton",
                "district": "South Cambridgeshire"
            }
        },
        {
            "type": "Feature",
            "geometry": {
                "type": "Point",
                "coordinates": [
                    0.153394,
                    52.239323
                ]
            },
            "properties": {
                "id": "8636b1634a665420e62027b85d069808e16d78e1",
                "name": "Sycamores Basketball Court",
                "locality": "Milton",
                "district": "South Cambridgeshire"
            }
        },
        {
            "type": "Feature",
            "geometry": {
                "type": "Point",
                "coordinates": [
                    0.083561,
                    52.240365
                ]
            },
            "properties": {
                "id": "f76ce658e6a6079bce2e96234efe1a9e09f39826",
                "name": "Girton War Memorial",
                "locality": "Girton",
                "district": "South Cambridgeshire",
                "removed": true
            }
        },
        {
            "type": "Feature",
            "geometry": {
                "type": "Point",
                "coordinates": [
                    0.168651,
                    52.241347
                ]
            },
            "properties": {
                "id": "8ee28d8883c03892032e6832d76ce8c0276f3aed",
                "name": "Milton Country Park, Fen Road Entrance",
                "locality": "Milton",
                "district": "South Cambridgeshire"
            }
        },
        {
            "type": "Feature",
            "geometry": {
                "type": "Point",
                "coordinates": [
                    0.110406,
                    52.242304
                ]
            },
            "properties": {
                "id": "8aa8e115c5894ad23a77bf7fcc1d40270569e9ae",
                "name": "Histon Historical Station",
                "locality": "Histon",
                "district": "South Cambridgeshire"
            }
        },
        {
            "type": "Feature",
            "geometry": {
                "type": "Point",
                "coordinates": [
                    0.161416,
                    52.243311
                ]
            },
            "properties": {
                "id": "9fa0204a49682c855285112a021daf0cbb8dec09",
                "name": "Milton White Horse",
                "locality": "Milton",
                "district": "South Cambridgeshire"
            }
        },
        {
            "type": "Feature",
            "geometry": {
                "type": "Point",
                "coordinates": [
                    0.164198,
                    52.243882
                ]
            },
            "properties": {
                "id": "fa58f631bf96190365c7bc37764ecaed607d673b",
                "name": "Milton War Memorial",
                "locality": "Milton",
                "district": "South Cambridgeshire"
            }
        },
        {
            "type": "Feature",
            "geometry": {
                "type": "Point",
                "coordinates": [
                    0.111838,
                    52.24404
                ]
            },
            "properties": {
                "id": "df09c2d9d4061c918f378210cba4ab1f49964950",
                "name": "Impington Village Sign",
                "locality": "Impington",
                "district": "South Cambridgeshire"
            }
        },
        {
            "type": "Feature",
            "geometry": {
                "type": "Point",
                "coordinates": [
                    0.107729,
                    52.244316
                ]
            },
            "properties": {
                "id": "907c4d99293ad91663a8e3f6b665ae0103a186e5",
                "name": "Vision Park Sculpture",
                "locality": "Histon",
                "district": "South Cambridgeshire",
                "removed": true
            }
        },
        {
            "type": "Feature",
            "geometry": {
                "type": "Point",
                "coordinates": [
                    0.18285,
                    52.214233
                ]
            },
            "properties": {
                "id": "27b7b6b49f145099d3e997513ecb21485a0979d0",
                "name": "Cambridge Jubilee Cycleway",
                "locality": "Fen Ditton",
                "district": "South Cambridgeshire"
            }
        },
        {
            "type": "Feature",
            "geometry": {
                "type": "Point",
                "coordinates": [
                    0.31828,
                    52.133191
                ]
            },
            "properties": {
                "id": "8d7f952a7b1eb492705fc84710c97a68bb0c7d39",
                "name": "Holy Trinity Balsham",
                "locality": "Balsham",
                "district": "South Cambridgeshire"
            }
        },
        {
            "type": "Feature",
            "geometry": {
                "type": "Point",
                "coordinates": [
                    0.313924,
                    52.079669
                ]
            },
            "properties": {
                "id": "fbc1dd97f678041100ba300d79d38b31de19c5fb",
                "name": "Bartlow Hills",
                "locality": "Bartlow",
                "district": "South Cambridgeshire"
            }
        },
        {
            "type": "Feature",
            "geometry": {
                "type": "Point",
                "coordinates": [
                    0.012421,
                    52.351506
                ]
            },
            "properties": {
                "id": "077414a2229c85303b895b6e5d18c045b8594468",
                "name": "Bluntisham War Memorial.",
                "locality": "Bluntisham",
                "district": "Huntingdonshire"
            }
        },
        {
            "type": "Feature",
            "geometry": {
                "type": "Point",
                "coordinates": [
                    0.007086,
                    52.352506
                ]
            },
            "properties": {
                "id": "ebd227bd1627d5c8a5aacf8532e27a320d618530",
                "name": "Bluntisham Baptist Church",
                "locality": "Bluntisham",
                "district": "Huntingdonshire"
            }
        },
        {
            "type": "Feature",
            "geometry": {
                "type": "Point",
                "coordinates": [
                    -0.118886,
                    52.384259
                ]
            },
            "properties": {
                "id": "81d93e024e6251262f64e25164bf51e0a64b3e71",
                "name": "Broughton Lock-Up",
                "locality": "Broughton",
                "district": "Huntingdonshire"
            }
        },
        {
            "type": "Feature",
            "geometry": {
                "type": "Point",
                "coordinates": [
                    0.326467,
                    52.284941
                ]
            },
            "properties": {
                "id": "1ef3d38b1f75e190c40f98a891792390937d2a45",
                "name": "Burwell Baptist Church",
                "locality": "Burwell",
                "district": "East Cambridgeshire"
            }
        },
        {
            "type": "Feature",
            "geometry": {
                "type": "Point",
                "coordinates": [
                    0.324741,
                    52.279891
                ]
            },
            "properties": {
                "id": "0c4cdcca5e8c9cce1169114f2b94deefddf9fbc3",
                "name": "The Fox Pub",
                "locality": "Burwell",
                "district": "East Cambridgeshire"
            }
        },
        {
            "type": "Feature",
            "geometry": {
                "type": "Point",
                "coordinates": [
                    0.327125,
                    52.274942
                ]
            },
            "properties": {
                "id": "a70abef563e66ec003449eba8a6569f91b441223",
                "name": "Burwell Village Sign",
                "locality": "Burwell",
                "district": "East Cambridgeshire"
            }
        },
        {
            "type": "Feature",
            "geometry": {
                "type": "Point",
                "coordinates": [
                    0.32761,
                    52.270524
                ]
            },
            "properties": {
                "id": "e39c8afc996274325dcac89e96eacd93b5623aaf",
                "name": "Burwell Parish Water Pump",
                "locality": "Burwell",
                "district": "East Cambridgeshire"
            }
        },
        {
            "type": "Feature",
            "geometry": {
                "type": "Point",
                "coordinates": [
                    0.327963,
                    52.269848
                ]
            },
            "properties": {
                "id": "411ab2054be784517db168efce3dcc6cf7753ae3",
                "name": "St.Mary the Virgin",
                "locality": "Burwell",
                "district": "East Cambridgeshire"
            }
        },
        {
            "type": "Feature",
            "geometry": {
                "type": "Point",
                "coordinates": [
                    0.01357,
                    52.365235
                ]
            },
            "properties": {
                "id": "8a6e10e9b06f0accde78d02e6f834a4dd649df40",
                "name": "Colne Village Church",
                "locality": "Colne",
                "district": "Huntingdonshire"
            }
        },
        {
            "type": "Feature",
            "geometry": {
                "type": "Point",
                "coordinates": [
                    0.184863,
                    52.414546
                ]
            },
            "properties": {
                "id": "f376d6ca4cec55ccf74a7195bcec15424206c54c",
                "name": "Coveney Village Sign",
                "locality": "Coveney",
                "district": "East Cambridgeshire"
            }
        },
        {
            "type": "Feature",
            "geometry": {
                "type": "Point",
                "coordinates": [
                    0.385439,
                    52.193343
                ]
            },
            "properties": {
                "id": "4a5c8515fc92273503641f24069e172e3d59e5b0",
                "name": "Dullingham Church",
                "locality": "Dullingham",
                "district": "East Cambridgeshire"
            }
        },
        {
            "type": "Feature",
            "geometry": {
                "type": "Point",
                "coordinates": [
                    0.124538,
                    52.09317
                ]
            },
            "properties": {
                "id": "fc11263d5a68fda1629a061315a2aba7e01a93bb",
                "name": "V1",
                "locality": "Duxford",
                "district": "South Cambridgeshire"
            }
        },
        {
            "type": "Feature",
            "geometry": {
                "type": "Point",
                "coordinates": [
                    0.125966,
                    52.09213
                ]
            },
            "properties": {
                "id": "428138340fb84be1769bb1f79b67f179d70fdf3a",
                "name": "Blackbird Flight",
                "locality": "Duxford",
                "district": "South Cambridgeshire"
            }
        },
        {
            "type": "Feature",
            "geometry": {
                "type": "Point",
                "coordinates": [
                    0.129833,
                    52.094453
                ]
            },
            "properties": {
                "id": "40e6144ec282f54e1479ed8d193eb0641f557b3e",
                "name": "Bristol Bloodhound",
                "locality": "Duxford",
                "district": "South Cambridgeshire"
            }
        },
        {
            "type": "Feature",
            "geometry": {
                "type": "Point",
                "coordinates": [
                    0.132993,
                    52.096477
                ]
            },
            "properties": {
                "id": "43fdf1309e8dd845be6edee55aac38a03fbd8688",
                "name": "Hawker Hurricane",
                "locality": "Duxford",
                "district": "South Cambridgeshire"
            }
        },
        {
            "type": "Feature",
            "geometry": {
                "type": "Point",
                "coordinates": [
                    0.13646,
                    52.096892
                ]
            },
            "properties": {
                "id": "51b7e0b7dba48a15d2bc734f68d0c36924468635",
                "name": "First World War British Biplane",
                "locality": "Duxford",
                "district": "South Cambridgeshire"
            }
        },
        {
            "type": "Feature",
            "geometry": {
                "type": "Point",
                "coordinates": [
                    0.159161,
                    52.092082
                ]
            },
            "properties": {
                "id": "cfa44322bee91c7fe44a957587240bc57b127f5a",
                "name": "Duxford War Memorial",
                "locality": "Duxford",
                "district": "South Cambridgeshire"
            }
        },
        {
            "type": "Feature",
            "geometry": {
                "type": "Point",
                "coordinates": [
                    0.159593,
                    52.092315
                ]
            },
            "properties": {
                "id": "10ce467365712af62fad616e63c3695fb9003795",
                "name": "St. Peter's Church",
                "locality": "Duxford",
                "district": "South Cambridgeshire"
            }
        },
        {
            "type": "Feature",
            "geometry": {
                "type": "Point",
                "coordinates": [
                    0.030995,
                    52.353856
                ]
            },
            "properties": {
                "id": "9b3d734bd7b4db338c5a3e65636a5fe76a01e812",
                "name": "Earith Village Sign",
                "locality": "Earith",
                "district": "Huntingdonshire"
            }
        },
        {
            "type": "Feature",
            "geometry": {
                "type": "Point",
                "coordinates": [
                    0.27403,
                    52.406402
                ]
            },
            "properties": {
                "id": "e7e7e96de51241007086cc3c97e2e3d33ef89cc0",
                "name": "Larkfield Community Centre",
                "locality": "Ely",
                "district": "East Cambridgeshire"
            }
        },
        {
            "type": "Feature",
            "geometry": {
                "type": "Point",
                "coordinates": [
                    0.273051,
                    52.403649
                ]
            },
            "properties": {
                "id": "f23ed3394c186783c6cdee4627ea8b3ac1b89657",
                "name": "Cemetery Chapel",
                "locality": "Ely",
                "district": "East Cambridgeshire"
            }
        },
        {
            "type": "Feature",
            "geometry": {
                "type": "Point",
                "coordinates": [
                    0.268673,
                    52.400338
                ]
            },
            "properties": {
                "id": "a18474acd7bf69b32a081e8cbb4d0b7e471cff35",
                "name": "Queen Victoria Diamond Jubilee",
                "locality": "Ely",
                "district": "East Cambridgeshire"
            }
        },
        {
            "type": "Feature",
            "geometry": {
                "type": "Point",
                "coordinates": [
                    0.277071,
                    52.399133
                ]
            },
            "properties": {
                "id": "0641d42f4b520c78630c30600a49eaa36e0ff467",
                "name": "Wooden Kingfisher Trail Marker",
                "locality": "Ely",
                "district": "East Cambridgeshire"
            }
        },
        {
            "type": "Feature",
            "geometry": {
                "type": "Point",
                "coordinates": [
                    0.276457,
                    52.397735
                ]
            },
            "properties": {
                "id": "8a5a91a6a6f8fea7140af16beec4af9acee49a35",
                "name": "Kingfisher Statue",
                "locality": "Ely",
                "district": "East Cambridgeshire"
            }
        },
        {
            "type": "Feature",
            "geometry": {
                "type": "Point",
                "coordinates": [
                    0.276072,
                    52.397428
                ]
            },
            "properties": {
                "id": "1029db926ca13cfc45b4b39f456344f670c0fec3",
                "name": "Reed Carving",
                "locality": "Ely",
                "district": "East Cambridgeshire"
            }
        },
        {
            "type": "Feature",
            "geometry": {
                "type": "Point",
                "coordinates": [
                    0.270799,
                    52.39555
                ]
            },
            "properties": {
                "id": "ff2770be567735f09ccaa235c244050ea9a76145",
                "name": "Lincoln Bridge",
                "locality": "Ely",
                "district": "East Cambridgeshire"
            }
        },
        {
            "type": "Feature",
            "geometry": {
                "type": "Point",
                "coordinates": [
                    0.268146,
                    52.390887
                ]
            },
            "properties": {
                "name": "The South Boundary",
                "locality": "Ely",
                "district": "East Cambridgeshire"
            }
        },
        {
            "type": "Feature",
            "geometry": {
                "type": "Point",
                "coordinates": [
                    0.266494,
                    52.390806
                ]
            },
            "properties": {
                "id": "d794fb1f2c73793684496f9f163a6980bb493e6b",
                "name": "Ely Station",
                "locality": "Ely",
                "district": "East Cambridgeshire"
            }
        },
        {
            "type": "Feature",
            "geometry": {
                "type": "Point",
                "coordinates": [
                    0.267773,
                    52.398299
                ]
            },
            "properties": {
                "id": "22f94bcd90e19f9e517fda954c0148c339ad6acd",
                "name": "Drayman's Son Micro-Pub",
                "locality": "Ely",
                "district": "East Cambridgeshire"
            }
        },
        {
            "type": "Feature",
            "geometry": {
                "type": "Point",
                "coordinates": [
                    0.264628,
                    52.399234
                ]
            },
            "properties": {
                "id": "c73489459f3ba124b107d7c1d3401902ead17225",
                "name": "Sacrist's Gate",
                "locality": "Ely",
                "district": "East Cambridgeshire"
            }
        },
        {
            "type": "Feature",
            "geometry": {
                "type": "Point",
                "coordinates": [
                    0.262804,
                    52.398924
                ]
            },
            "properties": {
                "id": "e987592342bd98dc76412083e9be12648056688d",
                "name": "Ely Cathedral's Broken Tower",
                "locality": "Ely",
                "district": "East Cambridgeshire"
            }
        },
        {
            "type": "Feature",
            "geometry": {
                "type": "Point",
                "coordinates": [
                    0.265418,
                    52.396107
                ]
            },
            "properties": {
                "id": "f3b0d84d2d0e51b52e9c8acf07e4c7429e4d5dfd",
                "name": "Tree Tunnel",
                "locality": "Ely",
                "district": "East Cambridgeshire"
            }
        },
        {
            "type": "Feature",
            "geometry": {
                "type": "Point",
                "coordinates": [
                    0.259488,
                    52.39617
                ]
            },
            "properties": {
                "id": "3bf23dc20ce2b1ac9b0b614eef33b91e56a81570",
                "name": "Bishop Woodford House",
                "locality": "Ely",
                "district": "East Cambridgeshire"
            }
        },
        {
            "type": "Feature",
            "geometry": {
                "type": "Point",
                "coordinates": [
                    0.252893,
                    52.395478
                ]
            },
            "properties": {
                "id": "6f24869c9141bb6842d99da3ef9ac97d7b55bff2",
                "name": "Water Tower",
                "locality": "Ely",
                "district": "East Cambridgeshire"
            }
        },
        {
            "type": "Feature",
            "geometry": {
                "type": "Point",
                "coordinates": [
                    0.261149,
                    52.398951
                ]
            },
            "properties": {
                "id": "3178b9089a84a1c1b414504595f528e959b3f405",
                "name": "Russian Cannon Ely",
                "locality": "Ely",
                "district": "East Cambridgeshire"
            }
        },
        {
            "type": "Feature",
            "geometry": {
                "type": "Point",
                "coordinates": [
                    0.259606,
                    52.398657
                ]
            },
            "properties": {
                "id": "c2d6c264e1d22e9bb97d9c840bedb6aab7eb5ada",
                "name": "St Mary's Parish Church",
                "locality": "Ely",
                "district": "East Cambridgeshire"
            }
        },
        {
            "type": "Feature",
            "geometry": {
                "type": "Point",
                "coordinates": [
                    0.259111,
                    52.398774
                ]
            },
            "properties": {
                "id": "b8563d37a313ea6f3da07eabc32b12ea64411611",
                "name": "Oliver Cromwell's House",
                "locality": "Ely",
                "district": "East Cambridgeshire"
            }
        },
        {
            "type": "Feature",
            "geometry": {
                "type": "Point",
                "coordinates": [
                    0.24938,
                    52.410644
                ]
            },
            "properties": {
                "id": "c2773af397c173fcc4cab877933cced4ca8a1640",
                "name": "Ely Tigers Rugby Club",
                "locality": "Ely",
                "district": "East Cambridgeshire"
            }
        },
        {
            "type": "Feature",
            "geometry": {
                "type": "Point",
                "coordinates": [
                    -0.037093,
                    52.307914
                ]
            },
            "properties": {
                "id": "d9941eaffe186fc21c978ac572ee4e50d3427b48",
                "name": "Fen Drayton Lakes Elney Lake",
                "locality": "Fen Drayton",
                "district": "South Cambridgeshire"
            }
        },
        {
            "type": "Feature",
            "geometry": {
                "type": "Point",
                "coordinates": [
                    -0.035421,
                    52.29512
                ]
            },
            "properties": {
                "id": "c04a8bcc283fc3083dc226193d447bb33c2dbb9d",
                "name": "Fen Drayton War Memorial",
                "locality": "Fen Drayton",
                "district": "South Cambridgeshire"
            }
        },
        {
            "type": "Feature",
            "geometry": {
                "type": "Point",
                "coordinates": [
                    -0.07311,
                    52.298477
                ]
            },
            "properties": {
                "id": "bee4ba0256ba7cd7ebafe6dcf3f57610e53ceea0",
                "name": "Fenstanton Clock House",
                "locality": "Fenstanton",
                "district": "Huntingdonshire"
            }
        },
        {
            "type": "Feature",
            "geometry": {
                "type": "Point",
                "coordinates": [
                    -0.065443,
                    52.300838
                ]
            },
            "properties": {
                "id": "16bcd7c0eb8ef32f40410484193b3cb5bde91b55",
                "name": "Fenstanton Parish Church",
                "locality": "Fenstanton",
                "district": "Huntingdonshire",
                "removed": true
            }
        },
        {
            "type": "Feature",
            "geometry": {
                "type": "Point",
                "coordinates": [
                    -0.065443,
                    52.300838
                ]
            },
            "properties": {
                "id": "16bcd7c0eb8ef32f40410484193b3cb5bde91b55",
                "name": "Fenstanton Parish Church",
                "locality": "Fenstanton",
                "district": "Huntingdonshire"
            }
        },